[
  {
    "name": "Warszawa",
    "lat": "52.2330653",
    "lon": "20.9211126"
  },
  {
    "name": "Berlin",
    "lat": "52.5074592",
    "lon": "13.2860647"
  },
  {
    "name": "Praga",
    "lat": "50.0595854",
    "lon": "14.3255429"
  },
  {
    "name": "Wiedeń",
    "lat": "48.2206636",
    "lon": "16.3100207"
  },
  {
    "name": "Bratysława",
    "lat": "48.1356952",
    "lon": "16.9758358"
  },
  {
    "name": "Budapeszt",
    "lat": "47.4811282",
    "lon": "18.9902217"
  }
]